[
  {
    "id": 1,
    "Name": "Aung Min",
    "DistanceKM": 12.5,
    "Type": "Type 1",
    "Cores": 4,
    "SpareCores": 1,
    "Status": "Active",
    "Township": "Bahan",
    "FromLatitude": 16.803,
    "FromLongitude": 96.155,
    "ToLatitude": 16.808,
    "ToLongitude": 96.160,
    "CreatedBy": "Admin",
    "InstallationDate": "2025-01-15",
    "CreatedDate": "2025-01-10"
  },
  {
    "id": 2,
    "Name": "Su Mon",
    "DistanceKM": 8.7,
    "Type": "Type 2",
    "Cores": 8,
    "SpareCores": 2,
    "Status": "Inactive",
    "Township": "Chanayethazan",
    "FromLatitude": 21.982,
    "FromLongitude": 96.086,
    "ToLatitude": 21.985,
    "ToLongitude": 96.091,
    "CreatedBy": "Admin",
    "InstallationDate": "2025-02-12",
    "CreatedDate": "2025-02-10"
  },
  {
    "id": 3,
    "Name": "Kyaw Thu",
    "DistanceKM": 15.3,
    "Type": "Type 1",
    "Cores": 4,
    "SpareCores": 0,
    "Status": "Active",
    "Township": "Zabuthiri",
    "FromLatitude": 19.763,
    "FromLongitude": 96.078,
    "ToLatitude": 19.768,
    "ToLongitude": 96.082,
    "CreatedBy": "Admin",
    "InstallationDate": "2025-03-05",
    "CreatedDate": "2025-03-01"
  },
  {
    "id": 4,
    "Name": "Hlaing Win",
    "DistanceKM": 10.1,
    "Type": "Type 3",
    "Cores": 16,
    "SpareCores": 4,
    "Status": "Active",
    "Township": "Chaungtha",
    "FromLatitude": 16.491,
    "FromLongitude": 97.629,
    "ToLatitude": 16.497,
    "ToLongitude": 97.635,
    "CreatedBy": "Admin",
    "InstallationDate": "2025-03-12",
    "CreatedDate": "2025-03-10"
  },
  {
    "id": 5,
    "Name": "Thandar",
    "DistanceKM": 7.8,
    "Type": "Type 2",
    "Cores": 8,
    "SpareCores": 2,
    "Status": "Inactive",
    "Township": "Bago",
    "FromLatitude": 17.335,
    "FromLongitude": 96.482,
    "ToLatitude": 17.340,
    "ToLongitude": 96.488,
    "CreatedBy": "Admin",
    "InstallationDate": "2025-04-01",
    "CreatedDate": "2025-03-28"
  },
  {
    "id": 6,
    "Name": "Zaw Lin",
    "DistanceKM": 11.4,
    "Type": "Type 1",
    "Cores": 4,
    "SpareCores": 1,
    "Status": "Active",
    "Township": "Aungban",
    "FromLatitude": 20.789,
    "FromLongitude": 97.032,
    "ToLatitude": 20.795,
    "ToLongitude": 97.038,
    "CreatedBy": "Admin",
    "InstallationDate": "2025-04-12",
    "CreatedDate": "2025-04-10"
  },
  {
    "id": 7,
    "Name": "Ei Mon",
    "DistanceKM": 9.2,
    "Type": "Type 2",
    "Cores": 8,
    "SpareCores": 3,
    "Status": "Inactive",
    "Township": "Pathein",
    "FromLatitude": 16.774,
    "FromLongitude": 94.730,
    "ToLatitude": 16.780,
    "ToLongitude": 94.735,
    "CreatedBy": "Admin",
    "InstallationDate": "2025-05-01",
    "CreatedDate": "2025-04-28"
  },
  {
    "id": 8,
    "Name": "Min Thu",
    "DistanceKM": 13.6,
    "Type": "Type 3",
    "Cores": 16,
    "SpareCores": 4,
    "Status": "Active",
    "Township": "Monywa",
    "FromLatitude": 22.096,
    "FromLongitude": 95.123,
    "ToLatitude": 22.102,
    "ToLongitude": 95.128,
    "CreatedBy": "Admin",
    "InstallationDate": "2025-05-12",
    "CreatedDate": "2025-05-10"
  },
  {
    "id": 9,
    "Name": "Khin Htay",
    "DistanceKM": 5.5,
    "Type": "Type 1",
    "Cores": 4,
    "SpareCores": 0,
    "Status": "Inactive",
    "Township": "Sittwe",
    "FromLatitude": 20.149,
    "FromLongitude": 92.900,
    "ToLatitude": 20.155,
    "ToLongitude": 92.905,
    "CreatedBy": "Admin",
    "InstallationDate": "2025-06-01",
    "CreatedDate": "2025-05-28"
  },
  {
    "id": 10,
    "Name": "Su Wai",
    "DistanceKM": 14.2,
    "Type": "Type 2",
    "Cores": 8,
    "SpareCores": 2,
    "Status": "Active",
    "Township": "Hpa-An",
    "FromLatitude": 16.890,
    "FromLongitude": 97.632,
    "ToLatitude": 16.895,
    "ToLongitude": 97.638,
    "CreatedBy": "Admin",
    "InstallationDate": "2025-06-12",
    "CreatedDate": "2025-06-10"
  }
]
